timestamp,stabilizer.roll,stabilizer.pitch,stateEstimateZ.rateRoll,stateEstimateZ.ratePitch,controller.pitchRate,roll,pitch,yawdot,thrust
1431819,-178.29266357421875,63.10260009765625,4.0,-2.0,-382.4017333984375,0,0,0,20000
1431829,-178.33029174804688,63.11052703857422,-13.0,-10.0,-386.2356872558594,0,0,0,20000
1431839,-178.38575744628906,63.11235809326172,-6.0,-13.0,-390.03338623046875,0,0,0,20000
1431849,-178.483642578125,63.17170333862305,-42.0,-134.0,-394.177734375,0,0,0,20000
1431859,-178.54061889648438,63.2545280456543,-60.0,-256.0,-398.4676818847656,0,0,0,20000
1431869,-178.59458923339844,63.50169372558594,-21.0,-443.0,-403.7538146972656,0,0,0,20000
1431879,-178.59286499023438,63.80487823486328,71.0,-812.0,-409.3935546875,0,0,0,20000
1431889,-178.49591064453125,64.51455688476562,45.0,-1217.0,-417.50384521484375,0,0,0,20000
1431899,-178.38319396972656,65.21472930908203,52.0,-1772.0,-425.60028076171875,0,0,0,20000
1431909,-178.11094665527344,66.7108154296875,59.0,-2510.0,-438.5403747558594,0,0,0,20000
1431919,-177.86380004882812,68.034912109375,72.0,-3269.0,-450.53448486328125,0,0,0,20000
1431929,-177.4247283935547,70.56410217285156,98.0,-4143.0,-469.87908935546875,0,0,0,20000
1431939,-177.0571746826172,72.64044189453125,80.0,-5066.0,-486.64471435546875,0,0,0,20000
1431949,-176.23348999023438,76.34295654296875,31.0,-6060.0,-513.3478393554688,0,0,0,20000
1431959,-175.28167724609375,79.15725708007812,17.0,-7117.0,-534.9148559570312,0,0,0,20000
1431969,-170.9901885986328,83.50535583496094,-27.0,-8188.0,-565.9113159179688,0,0,0,20000
1431979,-122.87019348144531,85.23333740234375,61.0,-9158.0,-581.3583984375,0,0,0,20000
1431989,-4.754899024963379,82.1224594116211,26.0,-10141.0,-567.7288818359375,0,0,0,20000
1431999,-2.4588825702667236,77.86254119873047,23.0,-10988.0,-546.9458618164062,0,0,0,20000
1432009,-1.2105013132095337,70.4059066772461,62.0,-11708.0,-506.6141662597656,0,0,0,20000
1432019,-0.7710350155830383,65.0230712890625,105.0,-12210.0,-478.34844970703125,0,0,0,20000
1432029,-0.26301413774490356,56.60255432128906,161.0,-12573.0,-431.4254150390625,0,0,0,20000
1432039,0.04312131181359291,50.85434341430664,232.0,-12695.0,-400.12554931640625,0,0,0,20000
1432049,0.5045251250267029,42.18701934814453,385.0,-12682.0,-350.8608703613281,0,0,0,20000
1432059,0.8038381934165955,36.440650939941406,493.0,-12568.0,-318.70684814453125,0,0,0,20000
1432069,1.2230520248413086,27.957822799682617,521.0,-12287.0,-269.6897888183594,0,0,0,20000
1432079,1.5518697500228882,22.434391021728516,609.0,-11946.0,-238.02748107910156,0,0,0,20000
1432089,1.9148167371749878,14.44083023071289,570.0,-11446.0,-191.12216186523438,0,0,0,20000
1432099,2.064887762069702,9.318649291992188,333.0,-11011.0,-161.07061767578125,0,0,0,20000
1432109,2.157991647720337,2.011155128479004,57.0,-10466.0,-117.5191879272461,0,0,0,20000
1432119,2.165529251098633,-2.5867905616760254,-56.0,-9803.0,-89.88600158691406,0,0,0,20000
1432129,2.0030839443206787,-9.052001953125,-263.0,-9172.0,-50.70398712158203,0,0,0,20000
1432139,1.8799933195114136,-13.083516120910645,-233.0,-8550.0,-25.825965881347656,0,0,0,20000
1432149,1.7197762727737427,-18.65913200378418,-126.0,-7856.0,8.616653442382812,0,0,0,20000
1432159,1.6701185703277588,-22.030061721801758,114.0,-7080.0,30.083946228027344,0,0,0,20000
1432169,1.6565524339675903,-26.5737247467041,-97.0,-6308.0,58.834808349609375,0,0,0,20000
1432179,1.6594200134277344,-29.240188598632812,156.0,-5522.0,76.52508544921875,0,0,0,20000
1432189,1.8890820741653442,-32.666202545166016,303.0,-4673.0,98.96260070800781,0,0,0,20000
1432199,1.9466149806976318,-34.58613586425781,110.0,-3893.0,112.51219940185547,0,0,0,20000
1432209,2.0161149501800537,-36.88299560546875,19.0,-2997.0,128.45497131347656,0,0,0,20000
1432219,2.004284620285034,-38.047119140625,-42.0,-2217.0,137.69564819335938,0,0,0,20000
1432229,1.8978941440582275,-39.19207000732422,-97.0,-1321.0,146.89324951171875,0,0,0,20000
1432239,1.778757095336914,-39.56494140625,-110.0,-464.0,151.4964599609375,0,0,0,20000
1432249,1.6281483173370361,-39.53114700317383,-146.0,366.0,153.6700439453125,0,0,0,20000
1432259,1.5611926317214966,-39.11750411987305,-71.0,1265.0,153.54600524902344,0,0,0,20000
1432269,1.501929759979248,-37.896175384521484,-45.0,2153.0,148.52493286132812,0,0,0,20000
1432279,1.4913116693496704,-36.68342971801758,21.0,3011.0,143.47962951660156,0,0,0,20000
1432289,1.4928946495056152,-34.26496887207031,2.0,3868.0,131.0865478515625,0,0,0,20000
1432299,1.516026258468628,-32.27372360229492,44.0,4687.0,121.12403869628906,0,0,0,20000
1432309,1.4704148769378662,-28.77149772644043,-104.0,5383.0,101.9239730834961,0,0,0,20000
1432319,1.3450427055358887,-26.150320053100586,-229.0,5947.0,87.82955932617188,0,0,0,20000
1432329,1.2302865982055664,-21.873167037963867,-97.0,6423.0,63.58378601074219,0,0,0,20000
1432339,1.0917004346847534,-18.83847999572754,-341.0,6774.0,46.57920837402344,0,0,0,20000
1432349,0.886138379573822,-14.091987609863281,-265.0,7036.0,19.060951232910156,0,0,0,20000
1432359,0.7356573939323425,-10.8284273147583,-370.0,7232.0,0.207794189453125,0,0,0,20000
1432369,0.506589412689209,-5.845909118652344,-310.0,7304.0,-29.216583251953125,0,0,0,20000
1432379,0.40044304728507996,-2.4797580242156982,-271.0,7380.0,-49.18385314941406,0,0,0,20000
1432389,0.2567439675331116,2.6022019386291504,-120.0,7416.0,-79.70967864990234,0,0,0,20000
1432399,0.2087634950876236,5.996140480041504,-118.0,7406.0,-100.35155487060547,0,0,0,20000
1432409,0.10262396186590195,11.050930976867676,-178.0,7344.0,-131.222412109375,0,0,0,20000
1432419,0.08247148990631104,14.388745307922363,24.0,7273.0,-152.03265380859375,0,0,0,20000
1432429,0.034630388021469116,19.312469482421875,-51.0,7151.0,-182.61605834960938,0,0,0,20000
1432439,0.011759062297642231,22.52326011657715,-62.0,6980.0,-203.15533447265625,0,0,0,20000
1432449,0.010112394578754902,27.211734771728516,55.0,6772.0,-232.80728149414062,0,0,0,20000
1432459,-0.026982659474015236,30.23912811279297,13.0,6529.0,-252.71359252929688,0,0,0,20000
1432469,-0.0825006365776062,34.604740142822266,-76.0,6259.0,-280.8800048828125,0,0,0,20000
1432479,-0.12405899912118912,37.3798713684082,-13.0,5987.0,-299.707275390625,0,0,0,20000
1432489,-0.21752934157848358,41.35038375854492,-54.0,5675.0,-325.91748046875,0,0,0,20000
1432499,-0.2978941798210144,43.84813690185547,-69.0,5343.0,-343.4752502441406,0,0,0,20000
1432509,-0.33991068601608276,47.368202209472656,152.0,5066.0,-367.3546142578125,0,0,0,20000
1432519,-0.40056803822517395,49.59534454345703,-19.0,4761.0,-383.6401062011719,0,0,0,20000
1432529,-0.46970728039741516,52.70610809326172,148.0,4468.0,-405.3935241699219,0,0,0,20000
1432539,-0.5758905410766602,54.63679122924805,-75.0,4106.0,-420.2099914550781,0,0,0,20000
1432549,-0.7071536183357239,57.29197311401367,-12.0,3756.0,-439.51629638671875,0,0,0,20000
1432559,-0.7736595869064331,58.893985748291016,-7.0,3402.0,-452.62396240234375,0,0,0,20000
1432569,-0.8896928429603577,61.045536041259766,-12.0,3018.0,-469.14605712890625,0,0,0,20000
1432579,-0.9455036520957947,62.29251480102539,-59.0,2615.0,-480.3359680175781,0,0,0,20000
1432589,-0.9901341795921326,63.90291213989258,33.0,2228.0,-493.7956848144531,0,0,0,20000
1432599,-1.0226047039031982,64.79557037353516,31.0,1822.0,-503.018310546875,0,0,0,20000
1432609,-1.1033949851989746,65.86945343017578,-79.0,1390.0,-513.3899536132812,0,0,0,20000
1432619,-1.1543834209442139,66.4027328491211,-7.0,1064.0,-518.4163818359375,0,0,0,20000
1432629,-1.1842761039733887,66.77934265136719,52.0,649.0,-520.676025390625,0,0,0,20000
1432639,-1.2198364734649658,67.08780670166016,53.0,253.0,-522.52685546875,0,0,0,20000
1432649,-1.2118542194366455,67.1004867553711,-19.0,-148.0,-522.6029052734375,0,0,0,20000
1432659,-1.1820393800735474,66.84844207763672,21.0,-560.0,-521.0906372070312,0,0,0,20000
1432669,-1.1524131298065186,66.48716735839844,24.0,-984.0,-518.9229736328125,0,0,0,20000
1432679,-1.0659406185150146,65.67805480957031,-8.0,-1389.0,-514.068359375,0,0,0,20000
1432689,-1.0044512748718262,64.95088195800781,-33.0,-1783.0,-509.7052917480469,0,0,0,20000
1432699,-0.8892592787742615,63.59910202026367,34.0,-2179.0,-501.5946044921875,0,0,0,20000
1432709,-0.7791465520858765,62.51473617553711,78.0,-2581.0,-495.0884094238281,0,0,0,20000
1432719,-0.6262836456298828,60.62798309326172,-27.0,-2975.0,-483.76788330078125,0,0,0,20000
1432729,-0.47967734932899475,59.19775390625,-13.0,-3319.0,-475.1865234375,0,0,0,20000
1432739,-0.3651757538318634,56.81696701049805,67.0,-3703.0,-460.90179443359375,0,0,0,20000
1432749,-0.2518015503883362,55.057193756103516,72.0,-4045.0,-450.3431701660156,0,0,0,20000
1432759,-0.0842394232749939,52.1879768371582,56.0,-4429.0,-433.12786865234375,0,0,0,20000
1432769,0.028283877298235893,50.09765625,78.0,-4773.0,-420.5859375,0,0,0,20000
1432779,0.2051774561405182,46.73743438720703,74.0,-5113.0,-400.42462158203125,0,0,0,20000
1432789,0.2734925150871277,44.33872604370117,58.0,-5452.0,-386.0323486328125,0,0,0,20000
1432799,0.39046284556388855,40.51757049560547,4.0,-5775.0,-363.10540771484375,0,0,0,20000
1432809,0.49851617217063904,37.826412200927734,109.0,-6012.0,-346.9584655761719,0,0,0,20000
1432819,0.6037615537643433,33.63567352294922,110.0,-6226.0,-321.81402587890625,0,0,0,20000
1432829,0.7031190991401672,30.78175163269043,147.0,-6313.0,-304.69049072265625,0,0,0,20000
1432839,0.8650833368301392,26.45994758605957,248.0,-6320.0,-278.75970458984375,0,0,0,20000
1432849,0.9956405758857727,23.601318359375,210.0,-6202.0,-261.60791015625,0,0,0,20000
1432859,1.187621831893921,19.409475326538086,270.0,-6012.0,-236.45684814453125,0,0,0,20000
1432869,1.2981528043746948,16.72471046447754,228.0,-5749.0,-220.3482666015625,0,0,0,20000
1432879,1.4489599466323853,12.897998809814453,204.0,-5401.0,-197.38800048828125,0,0,0,20000
1432889,1.5235450267791748,10.52822208404541,91.0,-4980.0,-183.16934204101562,0,0,0,20000
1432899,1.5346983671188354,7.267111778259277,-9.0,-4529.0,-163.6026611328125,0,0,0,20000
1432909,1.499681830406189,5.305301666259766,-166.0,-4061.0,-151.83181762695312,0,0,0,20000
1432919,1.3741482496261597,2.699655532836914,-170.0,-3574.0,-136.19793701171875,0,0,0,20000
1432929,1.3072491884231567,1.1816797256469727,-191.0,-3070.0,-127.09008026123047,0,0,0,20000
1432939,1.1481983661651611,-0.7425529360771179,-210.0,-2555.0,-115.5322036743164,0,0,0,20000
1432949,1.0902289152145386,-1.8001272678375244,-49.0,-2055.0,-109.1034927368164,0,0,0,20000
1432959,1.044197916984558,-3.0398755073547363,-115.0,-1564.0,-101.51028442382812,0,0,0,20000
1432969,0.9798738360404968,-3.6596386432647705,-41.0,-1152.0,-97.58639526367188,0,0,0,20000
1432979,1.012616515159607,-4.288466453552246,27.0,-717.0,-93.5693588256836,0,0,0,20000
1432989,0.9829545021057129,-4.549165725708008,-69.0,-442.0,-91.73805236816406,0,0,0,20000
1432999,0.9956769943237305,-4.742782115936279,80.0,-138.0,-90.29510498046875,0,0,0,20000
1433009,0.9834208488464355,-4.777875900268555,-103.0,-19.0,-89.79855346679688,0,0,0,20000
1433019,0.9280945062637329,-4.75762414932251,-38.0,87.0,-89.63362121582031,0,0,0,20000
1433029,0.9026464223861694,-4.710149765014648,-124.0,105.0,-89.63462829589844,0,0,0,20000
1433039,0.793119490146637,-4.649041652679443,-138.0,76.0,-89.72086334228516,0,0,0,20000
1433049,0.7646994590759277,-4.627937316894531,-32.0,20.0,-89.5693588256836,0,0,0,20000
1433059,0.6914544701576233,-4.6556549072265625,-125.0,-122.0,-89.12503051757812,0,0,0,20000
1433069,0.6802868247032166,-4.744938373565674,2.0,-276.0,-88.30696105957031,0,0,0,20000
1433079,0.6572116613388062,-5.000663757324219,-60.0,-464.0,-86.4796142578125,0,0,0,20000
1433089,0.6526440382003784,-5.262063980102539,94.0,-668.0,-84.60198974609375,0,0,0,20000
1433099,0.7124081254005432,-5.790921211242676,62.0,-849.0,-81.09488677978516,0,0,0,20000
1433109,0.7375625371932983,-6.223003387451172,73.0,-1035.0,-78.1395263671875,0,0,0,20000
1433119,0.8254873752593994,-6.974502086639404,138.0,-1171.0,-73.23068237304688,0,0,0,20000
1433129,0.8641730546951294,-7.527972221374512,113.0,-1273.0,-69.47161865234375,0,0,0,20000
1433139,0.9414860606193542,-8.419374465942383,111.0,-1325.0,-63.63959884643555,0,0,0,20000
1433149,0.9806495308876038,-9.03081226348877,83.0,-1349.0,-59.44385528564453,0,0,0,20000
1433159,1.0357718467712402,-9.948315620422363,72.0,-1325.0,-53.36383819580078,0,0,0,20000
1433169,1.0520367622375488,-10.546772003173828,32.0,-1277.0,-49.154571533203125,0,0,0,20000
1433179,1.0624088048934937,-11.394156455993652,8.0,-1180.0,-43.40648651123047,0,0,0,20000
1433189,1.0635005235671997,-11.899236679077148,-27.0,-1030.0,-39.67402648925781,0,0,0,20000
1433199,1.032327651977539,-12.551168441772461,-17.0,-886.0,-35.02436828613281,0,0,0,20000
1433209,1.0191984176635742,-12.921531677246094,-38.0,-740.0,-32.03569793701172,0,0,0,20000
1433219,0.9922667145729065,-13.370434761047363,-33.0,-573.0,-28.550094604492188,0,0,0,20000
1433229,0.9705082774162292,-13.601648330688477,-20.0,-429.0,-26.352134704589844,0,0,0,20000
1433239,0.9496352672576904,-13.838446617126465,1.0,-245.0,-24.10594940185547,0,0,0,20000
1433249,0.938738226890564,-13.923048973083496,5.0,-134.0,-22.764801025390625,0,0,0,20000
1433259,0.9140122532844543,-13.955405235290527,-20.0,39.0,-21.733314514160156,0,0,0,20000
1433269,0.8931950330734253,-13.923455238342285,-21.0,110.0,-21.08875274658203,0,0,0,20000
1433279,0.8555808067321777,-13.825173377990723,-66.0,167.0,-20.846336364746094,0,0,0,20000
1433289,0.8353849053382874,-13.741556167602539,-42.0,214.0,-20.521530151367188,0,0,0,20000
1433299,0.8075424432754517,-13.599355697631836,-32.0,211.0,-20.555389404296875,0,0,0,20000
1433309,0.792698085308075,-13.505266189575195,-45.0,177.0,-20.307411193847656,0,0,0,20000
1433319,0.7709439992904663,-13.393434524536133,-23.0,152.0,-20.172164916992188,0,0,0,20000
1433329,0.759895920753479,-13.33670711517334,6.0,97.0,-19.710968017578125,0,0,0,20000
1433339,0.7690620422363281,-13.285797119140625,-8.0,51.0,-19.218231201171875,0,0,0,20000
1433349,0.7736719846725464,-13.274650573730469,26.0,5.0,-18.488433837890625,0,0,0,20000
1433359,0.8008610010147095,-13.296562194824219,44.0,-71.0,-17.56006622314453,0,0,0,20000
1433369,0.8143431544303894,-13.339656829833984,20.0,-126.0,-16.502243041992188,0,0,0,20000
1433379,0.8405275940895081,-13.438389778137207,42.0,-158.0,-15.106040954589844,0,0,0,20000
1433389,0.8489956259727478,-13.52164077758789,21.0,-201.0,-13.797264099121094,0,0,0,20000
1433399,0.8507225513458252,-13.665517807006836,4.0,-219.0,-12.117591857910156,0,0,0,20000
1433409,0.8532808423042297,-13.767891883850098,-10.0,-232.0,-10.67974853515625,0,0,0,20000
1433419,0.8382778167724609,-13.925700187683105,-19.0,-232.0,-8.90118408203125,0,0,0,20000
1433429,0.839319109916687,-14.022056579589844,2.0,-196.0,-7.484077453613281,0,0,0,20000
1433439,0.8371824622154236,-14.146879196166992,4.0,-155.0,-5.88916015625,0,0,0,20000
1433449,0.8431849479675293,-14.202649116516113,34.0,-96.0,-4.7036590576171875,0,0,0,20000
1433459,0.852695107460022,-14.243391990661621,-16.0,-28.0,-3.6052398681640625,0,0,0,20000
1433469,0.8385893702507019,-14.245819091796875,13.0,4.0,-2.7358779907226562,0,0,0,20000
1433479,0.8496790528297424,-14.212271690368652,16.0,82.0,-2.0832595825195312,0,0,0,20000
1433489,0.844455361366272,-14.155592918395996,-16.0,143.0,-1.5725250244140625,0,0,0,20000
1433499,0.830819845199585,-14.050281524658203,-17.0,162.0,-1.3588180541992188,0,0,0,20000
1433509,0.8245605826377869,-13.962504386901855,-35.0,216.0,-1.0456390380859375,0,0,0,20000
1433519,0.798914909362793,-13.816753387451172,-36.0,207.0,-1.0877227783203125,0,0,0,20000
1433529,0.7781753540039062,-13.710212707519531,-49.0,234.0,-0.9018096923828125,0,0,0,20000
1433539,0.7517629861831665,-13.552094459533691,-13.0,238.0,-1.0335006713867188,0,0,0,20000
1433549,0.7490490674972534,-13.438921928405762,-8.0,245.0,-0.9034576416015625,0,0,0,20000
1433559,0.73235684633255,-13.273530960083008,-28.0,250.0,-1.0953216552734375,0,0,0,20000
1433569,0.7307147979736328,-13.169378280639648,2.0,222.0,-0.92755126953125,0,0,0,20000
1433579,0.738538920879364,-13.016541481018066,6.0,218.0,-1.0599594116210938,0,0,0,20000
1433589,0.7459837794303894,-12.920989990234375,20.0,200.0,-0.85577392578125,0,0,0,20000
1433599,0.7613176107406616,-12.79562759399414,25.0,174.0,-0.8373260498046875,0,0,0,20000
1433609,0.7799240946769714,-12.70826530456543,21.0,197.0,-0.596923828125,0,0,0,20000
1433619,0.7897956371307373,-12.58605670928955,25.0,170.0,-0.5721282958984375,0,0,0,20000
1433629,0.7928861975669861,-12.503057479858398,-1.0,181.0,-0.3179168701171875,0,0,0,20000
1433639,0.7889402508735657,-12.380410194396973,-3.0,179.0,-0.30800628662109375,0,0,0,20000
1433649,0.7818268537521362,-12.300797462463379,-4.0,158.0,-0.04569244384765625,0,0,0,20000
1433659,0.7755212783813477,-12.181073188781738,-20.0,177.0,-0.03028106689453125,0,0,0,20000
1433669,0.7695128917694092,-12.104226112365723,-11.0,167.0,0.2366790771484375,0,0,0,20000
1433679,0.7624850273132324,-11.97897720336914,0.0,181.0,0.206939697265625,0,0,0,20000
1433689,0.758545458316803,-11.893013954162598,-11.0,204.0,0.4067840576171875,0,0,0,20000
1433699,0.7616684436798096,-11.75034236907959,20.0,211.0,0.25925445556640625,0,0,0,20000
1433709,0.7661603689193726,-11.648492813110352,0.0,228.0,0.34957122802734375,0,0,0,20000
1433719,0.7690721750259399,-11.492767333984375,7.0,229.0,0.1085052490234375,0,0,0,20000
1433729,0.7777745127677917,-11.38151741027832,24.0,255.0,0.12664031982421875,0,0,0,20000
1433739,0.7746758460998535,-11.211140632629395,-17.0,236.0,-0.21898651123046875,0,0,0,20000
1433749,0.7776731848716736,-11.105966567993164,9.0,239.0,-0.18115234375,0,0,0,20000
1433759,0.7781967520713806,-10.935304641723633,-16.0,238.0,-0.545013427734375,0,0,0,20000
1433769,0.766411542892456,-10.831765174865723,-18.0,222.0,-0.5139083862304688,0,0,0,20000
1433779,0.764315128326416,-10.689764022827148,3.0,205.0,-0.7211227416992188,0,0,0,20000
1433789,0.754902184009552,-10.599117279052734,-15.0,189.0,-0.6268539428710938,0,0,0,20000
1433799,0.7565230131149292,-10.472185134887695,5.0,177.0,-0.7571601867675781,0,0,0,20000
1433809,0.7622010707855225,-10.387202262878418,4.0,185.0,-0.6417617797851562,0,0,0,20000
1433819,0.7677991986274719,-10.264320373535156,14.0,178.0,-0.76031494140625,0,0,0,20000
1433829,0.7870392799377441,-10.17861270904541,30.0,210.0,-0.6617889404296875,0,0,0,20000
1433839,0.7961148619651794,-10.032333374023438,22.0,212.0,-0.9339981079101562,0,0,0,20000
1433849,0.8055576682090759,-9.931711196899414,8.0,224.0,-0.9394264221191406,0,0,0,20000
1433859,0.8088203072547913,-9.78376579284668,-6.0,213.0,-1.2365608215332031,0,0,0,20000
1433869,0.7982311248779297,-9.69245433807373,-19.0,207.0,-1.2006378173828125,0,0,0,20000
1433879,0.7872499227523804,-9.544507026672363,-27.0,222.0,-1.5120697021484375,0,0,0,20000
1433889,0.7870952486991882,-9.449944496154785,2.0,213.0,-1.5102157592773438,0,0,0,20000
1433899,0.7826171517372131,-9.298247337341309,-20.0,214.0,-1.8589324951171875,0,0,0,20000
1433909,0.7771801948547363,-9.200737953186035,-15.0,198.0,-1.8896942138671875,0,0,0,20000
1433919,0.7689711451530457,-9.066062927246094,-8.0,197.0,-2.150493621826172,0,0,0,20000
1433929,0.7685415744781494,-8.98448657989502,-4.0,178.0,-2.0988998413085938,0,0,0,20000
1433939,0.7713987231254578,-8.860440254211426,20.0,186.0,-2.308502197265625,0,0,0,20000
1433949,0.7788367867469788,-8.779695510864258,9.0,187.0,-2.264209747314453,0,0,0,20000
1433959,0.7826597690582275,-8.63815975189209,4.0,215.0,-2.5916290283203125,0,0,0,20000
1433969,0.7991580367088318,-8.528615951538086,44.0,259.0,-2.7345237731933594,0,0,0,20000
1433979,0.8115984201431274,-8.342562675476074,15.0,277.0,-3.3457489013671875,0,0,0,20000
1433989,0.8172878623008728,-8.202760696411133,-4.0,316.0,-3.6889991760253906,0,0,0,20000
1433999,0.806143045425415,-7.982622146606445,-29.0,328.0,-4.525485992431641,0,0,0,20000
1434009,0.8010898232460022,-7.834492206573486,13.0,312.0,-4.940647125244141,0,0,0,20000
1434019,0.7878950238227844,-7.614473342895508,-45.0,321.0,-5.798652648925781,0,0,0,20000
1434029,0.7720819711685181,-7.47418737411499,-14.0,299.0,-6.1885986328125,0,0,0,20000
1434039,0.7492021322250366,-7.281462669372559,-26.0,262.0,-6.903648376464844,0,0,0,20000
1434049,0.7343354821205139,-7.17104434967041,-50.0,226.0,-7.1332855224609375,0,0,0,20000
1434059,0.7157854437828064,-7.027171611785889,4.0,199.0,-7.571529388427734,0,0,0,20000
1434069,0.7157912254333496,-6.945680618286133,-7.0,160.0,-7.641788482666016,0,0,0,20000
1434079,0.7090968489646912,-6.849094390869141,-2.0,122.0,-7.8082427978515625,0,0,0,20000
1434089,0.7196842432022095,-6.804224967956543,19.0,89.0,-7.668182373046875,0,0,0,20000
1434099,0.7215354442596436,-6.765763759613037,-17.0,36.0,-7.492313385009766,0,0,0,20000
1434109,0.7253438830375671,-6.7511420249938965,55.0,32.0,-7.174598693847656,0,0,0,20000
1434119,0.7614048719406128,-6.744881629943848,28.0,10.0,-6.807334899902344,0,0,0,20000
1434129,0.7572701573371887,-6.756021022796631,14.0,-23.0,-6.335418701171875,0,0,0,20000
1434139,0.7607278823852539,-6.787191390991211,-5.0,-65.0,-5.742122650146484,0,0,0,20000
1434149,0.7608789801597595,-6.823057651519775,-44.0,-79.0,-5.118461608886719,0,0,0,20000
1434159,0.7220621705055237,-6.881449222564697,-33.0,-84.0,-4.356632232666016,0,0,0,20000
1434169,0.7249651551246643,-6.910607814788818,-5.0,-60.0,-3.7677230834960938,0,0,0,20000
1434179,0.7149810194969177,-6.935769557952881,0.0,-23.0,-3.2010269165039062,0,0,0,20000
1434189,0.7280411720275879,-6.934713363647461,29.0,16.0,-2.791156768798828,0,0,0,20000
1434199,0.7222257852554321,-6.901579856872559,-30.0,75.0,-2.574810028076172,0,0,0,20000
1434209,0.7236363887786865,-6.858842372894287,60.0,112.0,-2.4186325073242188,0,0,0,20000
1434219,0.7519158720970154,-6.759381294250488,3.0,161.0,-2.6072959899902344,0,0,0,20000
1434229,0.7586178779602051,-6.671944618225098,21.0,212.0,-2.7294769287109375,0,0,0,20000
1434239,0.7657884955406189,-6.5230255126953125,-2.0,226.0,-3.2279205322265625,0,0,0,20000
1434249,0.7507696747779846,-6.416500568389893,-48.0,238.0,-3.479480743408203,0,0,0,20000
1434259,0.7432458400726318,-6.247644901275635,-2.0,259.0,-4.113559722900391,0,0,0,20000
1434269,0.7183815836906433,-6.135088920593262,-43.0,236.0,-4.418102264404297,0,0,0,20000
1434279,0.7167381644248962,-5.9571661949157715,11.0,271.0,-5.1237945556640625,0,0,0,20000
1434289,0.7082560062408447,-5.842896461486816,-9.0,248.0,-5.456169128417969,0,0,0,20000
1434299,0.7111467719078064,-5.721532344818115,2.0,278.0,-5.9082183837890625,0,0,0,20000
1434309,0.7015271782875061,-5.539403915405273,-25.0,261.0,-6.664371490478516,0,0,0,20000
1434319,0.6878442168235779,-5.429422378540039,9.0,223.0,-6.995838165283203,0,0,0,20000
1434329,0.6993219256401062,-5.278036117553711,2.0,217.0,-7.583793640136719,0,0,0,20000
1434339,0.6991976499557495,-5.187468528747559,-7.0,189.0,-7.813817977905273,0,0,0,20000
1434349,0.6938808560371399,-5.071796894073486,9.0,145.0,-8.200996398925781,0,0,0,20000
1434359,0.6942726373672485,-5.014744758605957,-23.0,105.0,-8.241125106811523,0,0,0,20000
1434369,0.6980764269828796,-4.951455116271973,43.0,99.0,-8.322320938110352,0,0,0,20000
1434379,0.7073779106140137,-4.910709381103516,-3.0,80.0,-8.271141052246094,0,0,0,20000
1434389,0.7029972076416016,-4.852669715881348,-3.0,78.0,-8.326807022094727,0,0,0,20000
1434399,0.7135375738143921,-4.821016788482666,0.0,66.0,-8.226730346679688,0,0,0,20000
1434409,0.7116938233375549,-4.778562545776367,-4.0,57.0,-8.193778991699219,0,0,0,20000
1434419,0.7114754915237427,-4.754483222961426,23.0,35.0,-8.052469253540039,0,0,0,20000
1434429,0.7172539830207825,-4.729997634887695,-35.0,46.0,-7.9149017333984375,0,0,0,20000
1434439,0.7048097252845764,-4.713548183441162,9.0,37.0,-7.7303619384765625,0,0,0,20000
1434449,0.6959291100502014,-4.686097145080566,-33.0,46.0,-7.613214492797852,0,0,0,20000
1434459,0.703993022441864,-4.6579155921936035,25.0,77.0,-7.502124786376953,0,0,0,20000
1434469,0.695232093334198,-4.5988664627075195,-29.0,81.0,-7.579076766967773,0,0,0,20000
1434479,0.7075710892677307,-4.549515247344971,-5.0,116.0,-7.601016998291016,0,0,0,20000
1434489,0.7041074633598328,-4.46483039855957,29.0,136.0,-7.839118957519531,0,0,0,20000
1434499,0.7057006359100342,-4.402995586395264,-13.0,133.0,-7.944435119628906,0,0,0,20000
1434509,0.6932437419891357,-4.308250904083252,-37.0,150.0,-8.25204086303711,0,0,0,20000
1434519,0.6976154446601868,-4.244851112365723,43.0,159.0,-8.376211166381836,0,0,0,20000
1434529,0.7063435316085815,-4.128033638000488,-13.0,171.0,-8.826555252075195,0,0,0,20000
1434539,0.6960680484771729,-4.044958591461182,2.0,176.0,-9.080333709716797,0,0,0,20000
1434549,0.695387601852417,-3.9314746856689453,-19.0,165.0,-9.522674560546875,0,0,0,20000
1434559,0.6698597073554993,-3.8520026206970215,-3.0,161.0,-9.766502380371094,0,0,0,20000
1434569,0.6791083216667175,-3.7378973960876465,1.0,173.0,-10.22406005859375,0,0,0,20000
1434579,0.6825535297393799,-3.663637399673462,6.0,154.0,-10.448007583618164,0,0,0,20000
1434589,0.688736617565155,-3.558258295059204,28.0,136.0,-10.86433219909668,0,0,0,20000
1434599,0.6816099882125854,-3.502885580062866,-89.0,119.0,-10.985113143920898,0,0,0,20000
1434609,0.658370316028595,-3.4224510192871094,78.0,111.0,-11.260555267333984,0,0,0,20000
1434619,0.6735641956329346,-3.36657977104187,-45.0,104.0,-11.392417907714844,0,0,0,20000
1434629,0.6566188335418701,-3.294398069381714,39.0,111.0,-11.626054763793945,0,0,0,20000
1434639,0.685106635093689,-3.245163917541504,-5.0,98.0,-11.725622177124023,0,0,0,20000
1434649,0.6372491717338562,-3.195570468902588,-63.0,55.0,-11.830432891845703,0,0,0,20000
1434659,0.6641457080841064,-3.163991928100586,71.0,78.0,-11.82931137084961,0,0,0,20000
1434669,0.6510478258132935,-3.1175718307495117,-70.0,68.0,-11.919742584228516,0,0,0,20000
1434679,0.6579293608665466,-3.086055040359497,118.0,63.0,-11.922870635986328,0,0,0,20000
1434689,0.7021037340164185,-3.040742874145508,-30.0,74.0,-12.011146545410156,0,0,0,20000
1434699,0.6734023094177246,-3.009974718093872,24.0,69.0,-12.01441764831543,0,0,0,20000
1434709,0.7249898314476013,-2.958768606185913,37.0,74.0,-12.142875671386719,0,0,0,20000
1434719,0.6896070241928101,-2.924237012863159,-88.0,73.0,-12.173831939697266,0,0,0,20000
1434729,0.7132979035377502,-2.872180938720703,122.0,85.0,-12.31253433227539,0,0,0,20000
1434739,0.7164720296859741,-2.8346874713897705,-105.0,65.0,-12.36648941040039,0,0,0,20000
1434749,0.6863188147544861,-2.7834620475769043,65.0,78.0,-12.505504608154297,0,0,0,20000
1434759,0.7056626677513123,-2.7423789501190186,-83.0,88.0,-12.586471557617188,0,0,0,20000
1434769,0.6443933248519897,-2.682757616043091,-24.0,87.0,-12.781806945800781,0,0,0,20000
1434779,0.6746443510055542,-2.639573574066162,41.0,103.0,-12.881512641906738,0,0,0,20000
1434789,0.6467617750167847,-2.5714571475982666,-43.0,112.0,-13.134275436401367,0,0,0,20000
1434799,0.6638492345809937,-2.519441604614258,81.0,109.0,-13.293943405151367,0,0,0,20000
1434809,0.6539424061775208,-2.4409801959991455,-96.0,105.0,-13.616361618041992,0,0,0,20000
1434819,0.6479485630989075,-2.394399642944336,66.0,111.0,-13.75111198425293,0,0,0,20000
1434829,0.676711916923523,-2.315931558609009,-4.0,109.0,-14.081100463867188,0,0,0,20000
1434839,0.6613870859146118,-2.2691190242767334,14.0,96.0,-14.224699020385742,0,0,0,20000
1434849,0.6787926554679871,-2.2053191661834717,-11.0,87.0,-14.473699569702148,0,0,0,20000
1434859,0.6615778207778931,-2.1758391857147217,-20.0,55.0,-14.519338607788086,0,0,0,20000
1434869,0.6492888927459717,-2.149820327758789,3.0,15.0,-14.546005249023438,0,0,0,20000
1434879,0.6582264304161072,-2.1415205001831055,-30.0,18.0,-14.467140197753906,0,0,0,20000
1434889,0.6508201956748962,-2.132678270339966,35.0,15.0,-14.39202880859375,0,0,0,20000
1434899,0.657303512096405,-2.1243958473205566,-32.0,12.0,-14.314043998718262,0,0,0,20000
1434909,0.6412997841835022,-2.1158223152160645,-25.0,20.0,-14.238295555114746,0,0,0,20000
1434919,0.6492579579353333,-2.104693651199341,55.0,43.0,-14.178489685058594,0,0,0,20000
1434929,0.6647219657897949,-2.075033664703369,-16.0,52.0,-14.23119831085205,0,0,0,20000
1434939,0.6633065938949585,-2.043386697769165,23.0,75.0,-14.297685623168945,0,0,0,20000
1434949,0.6719214916229248,-1.9882807731628418,-8.0,73.0,-14.50769329071045,0,0,0,20000
1434959,0.6701911687850952,-1.956640601158142,16.0,69.0,-14.579330444335938,0,0,0,20000
1434969,0.6617175936698914,-1.9080491065979004,-43.0,68.0,-14.755249977111816,0,0,0,20000
1434979,0.6507875919342041,-1.872388243675232,19.0,92.0,-14.856008529663086,0,0,0,20000
1434989,0.664976179599762,-1.8113014698028564,-5.0,85.0,-15.112491607666016,0,0,0,20000
1434999,0.6408135890960693,-1.771967887878418,-51.0,58.0,-15.241275787353516,0,0,0,20000
1435009,0.6460567712783813,-1.7316442728042603,18.0,67.0,-15.378311157226562,0,0,0,20000
1435019,0.6444688439369202,-1.7043300867080688,-22.0,55.0,-15.43928337097168,0,0,0,20000
1435029,0.6352619528770447,-1.6569464206695557,42.0,71.0,-15.622968673706055,0,0,0,20000
1435039,0.6591570377349854,-1.622705340385437,-2.0,82.0,-15.73024845123291,0,0,0,20000
1435049,0.6511444449424744,-1.5762380361557007,26.0,62.0,-15.913444519042969,0,0,0,20000
1435059,0.668192982673645,-1.546776533126831,27.0,69.0,-15.996667861938477,0,0,0,20000
1435069,0.6675408482551575,-1.486039400100708,-34.0,112.0,-16.270282745361328,0,0,0,20000
1435079,0.6863616108894348,-1.4330874681472778,64.0,134.0,-16.500713348388672,0,0,0,20000
1435089,0.6966965794563293,-1.3384355306625366,-23.0,150.0,-16.986011505126953,0,0,0,20000
1435099,0.6949208974838257,-1.2608695030212402,18.0,171.0,-17.373897552490234,0,0,0,20000
1435109,0.6987483501434326,-1.1353862285614014,-8.0,188.0,-18.055631637573242,0,0,0,20000
1435119,0.6822004318237305,-1.0530551671981812,-7.0,175.0,-18.48444366455078,0,0,0,20000
1435129,0.7029687166213989,-0.93315589427948,17.0,171.0,-19.145069122314453,0,0,0,20000
1435139,0.6681296825408936,-0.8667303323745728,-91.0,128.0,-19.49009132385254,0,0,0,20000
1435149,0.6625869870185852,-0.8002936840057373,10.0,79.0,-19.839263916015625,0,0,0,20000
1435159,0.6460102200508118,-0.7758371233940125,-64.0,35.0,-19.93889617919922,0,0,0,20000
1435169,0.6307852864265442,-0.760222315788269,29.0,16.0,-19.98666000366211,0,0,0,20000
1435179,0.6566250920295715,-0.7572534084320068,41.0,-1.0,-19.958995819091797,0,0,0,20000
1435189,0.6633163690567017,-0.768899142742157,22.0,-30.0,-19.843402862548828,0,0,0,20000
1435199,0.6713079214096069,-0.7839508056640625,-5.0,-39.0,-19.706417083740234,0,0,0,20000
1435209,0.6738101243972778,-0.8116514682769775,-8.0,-38.0,-19.492164611816406,0,0,0,20000
1435219,0.69251948595047,-0.8232271075248718,94.0,-24.0,-19.373592376708984,0,0,0,20000
1435229,0.7374144196510315,-0.8216153979301453,23.0,10.0,-19.333786010742188,0,0,0,20000
1435239,0.7387805581092834,-0.8150196671485901,39.0,22.0,-19.324281692504883,0,0,0,20000
1435249,0.745423436164856,-0.7945956587791443,-13.0,39.0,-19.398521423339844,0,0,0,20000
1435259,0.7213709354400635,-0.7778976559638977,-31.0,47.0,-19.45159149169922,0,0,0,20000
1435269,0.7197996377944946,-0.7387053370475769,6.0,60.0,-19.6414794921875,0,0,0,20000
1435279,0.7121570110321045,-0.7090559005737305,-54.0,72.0,-19.7761287689209,0,0,0,20000
1435289,0.7153738141059875,-0.6645253896713257,52.0,65.0,-20.00232696533203,0,0,0,20000
1435299,0.6937282085418701,-0.6407524943351746,-85.0,27.0,-20.105993270874023,0,0,0,20000
1435309,0.6562149524688721,-0.6231740117073059,-30.0,20.0,-20.173641204833984,0,0,0,20000
1435319,0.6525362133979797,-0.6188059449195862,-12.0,-7.0,-20.16265869140625,0,0,0,20000
1435329,0.6323652863502502,-0.6376670598983765,9.0,-37.0,-20.01178550720215,0,0,0,20000
1435339,0.6614711880683899,-0.6517703533172607,28.0,-35.0,-19.88839340209961,0,0,0,20000
1435349,0.6503908038139343,-0.6798137426376343,-36.0,-40.0,-19.680023193359375,0,0,0,20000
1435359,0.6670295596122742,-0.6966862082481384,64.0,-29.0,-19.537363052368164,0,0,0,20000
1435369,0.6857821941375732,-0.7132577896118164,16.0,-17.0,-19.395519256591797,0,0,0,20000
1435379,0.6899535655975342,-0.7087309956550598,16.0,9.0,-19.38004493713379,0,0,0,20000
1435389,0.7213575839996338,-0.693233072757721,44.0,38.0,-19.430875778198242,0,0,0,20000
1435399,0.7095674872398376,-0.6701349020004272,-7.0,57.0,-19.52866554260254,0,0,0,20000
1435409,0.725315272808075,-0.6207853555679321,4.0,83.0,-19.786212921142578,0,0,0,20000
1435419,0.7126410007476807,-0.582036018371582,-35.0,96.0,-19.982858657836914,0,0,0,20000
1435429,0.6953353881835938,-0.5233859419822693,-13.0,71.0,-20.302074432373047,0,0,0,20000
1435439,0.6780129671096802,-0.48790377378463745,-74.0,75.0,-20.484806060791016,0,0,0,20000
1435449,0.657413899898529,-0.44184568524360657,20.0,77.0,-20.73351287841797,0,0,0,20000
1435459,0.6663799285888672,-0.401340126991272,10.0,95.0,-20.95146369934082,0,0,0,20000
1435469,0.6721404790878296,-0.34147074818611145,28.0,91.0,-21.288692474365234,0,0,0,20000
1435479,0.670261561870575,-0.3039037883281708,-32.0,80.0,-21.494972229003906,0,0,0,20000
1435489,0.6736295223236084,-0.24280062317848206,-4.0,91.0,-21.845462799072266,0,0,0,20000
1435499,0.676603376865387,-0.20502208173274994,30.0,84.0,-22.058944702148438,0,0,0,20000
1435509,0.6790710687637329,-0.15430507063865662,11.0,67.0,-22.352863311767578,0,0,0,20000
1435519,0.6915241479873657,-0.11912760138511658,-13.0,78.0,-22.555919647216797,0,0,0,20000
1435529,0.6963174343109131,-0.066832035779953,31.0,77.0,-22.86441993713379,0,0,0,20000
1435539,0.6997443437576294,-0.0225240346044302,1.0,88.0,-23.127840042114258,0,0,0,20000
1435549,0.6838966608047485,0.030493073165416718,-4.0,78.0,-23.446531295776367,0,0,0,20000
1435559,0.6874525547027588,0.0662137046456337,-44.0,61.0,-23.664052963256836,0,0,0,20000
1435569,0.6876692771911621,0.09800270944833755,23.0,33.0,-23.860023498535156,0,0,0,20000
1435579,0.6754964590072632,0.09937174618244171,-14.0,-4.0,-23.874195098876953,0,0,0,20000
1435589,0.6591619849205017,0.09021607041358948,-32.0,-17.0,-23.824939727783203,0,0,0,20000
1435599,0.6660539507865906,0.07895617932081223,23.0,-27.0,-23.762413024902344,0,0,0,20000
1435609,0.6745193600654602,0.05484556779265404,17.0,-37.0,-23.621641159057617,0,0,0,20000
1435619,0.6755023002624512,0.03525789827108383,47.0,-53.0,-23.50670051574707,0,0,0,20000
1435629,0.6804592609405518,-0.0032435390166938305,-38.0,-56.0,-23.276472091674805,0,0,0,20000
1435639,0.6885333061218262,-0.03535047918558121,3.0,-67.0,-23.082500457763672,0,0,0,20000
1435649,0.6962822675704956,-0.083509162068367,26.0,-59.0,-22.789670944213867,0,0,0,20000
1435659,0.6944668292999268,-0.1131574884057045,13.0,-70.0,-22.605684280395508,0,0,0,20000
1435669,0.7078852653503418,-0.1561208814382553,2.0,-48.0,-22.339393615722656,0,0,0,20000
1435679,0.6967341303825378,-0.18441760540008545,-23.0,-59.0,-22.159244537353516,0,0,0,20000
1435689,0.693852961063385,-0.22219844162464142,1.0,-55.0,-21.920150756835938,0,0,0,20000
1435699,0.6755699515342712,-0.2411372810602188,-40.0,-35.0,-21.792465209960938,0,0,0,20000
1435709,0.673561692237854,-0.2629210948944092,15.0,-22.0,-21.646469116210938,0,0,0,20000
1435719,0.6862119436264038,-0.26954907178878784,7.0,1.0,-21.590656280517578,0,0,0,20000
1435729,0.6970189809799194,-0.26149606704711914,27.0,20.0,-21.62301254272461,0,0,0,20000
1435739,0.7056472301483154,-0.24144035577774048,-10.0,45.0,-21.728374481201172,0,0,0,20000
1435749,0.7023887038230896,-0.19840173423290253,27.0,74.0,-21.973478317260742,0,0,0,20000
1435759,0.6934159398078918,-0.15494950115680695,-7.0,91.0,-22.223834991455078,0,0,0,20000
1435769,0.6906356811523438,-0.08147738128900528,-19.0,108.0,-22.65795135498047,0,0,0,20000
1435779,0.6891855001449585,-0.02304214797914028,-6.0,131.0,-23.005779266357422,0,0,0,20000
1435789,0.6847118139266968,0.06082767993211746,-3.0,119.0,-23.510738372802734,0,0,0,20000
1435799,0.6785153746604919,0.10985402762889862,8.0,104.0,-23.81031608581543,0,0,0,20000
1435809,0.6679526567459106,0.1770574003458023,-50.0,91.0,-24.222579956054688,0,0,0,20000
1435819,0.66933274269104,0.21625417470932007,9.0,76.0,-24.469823837280273,0,0,0,20000
1435829,0.6561747193336487,0.25613903999328613,-7.0,44.0,-24.723682403564453,0,0,0,20000
1435839,0.646327555179596,0.27359944581985474,-16.0,27.0,-24.844453811645508,0,0,0,20000
1435849,0.6494743227958679,0.28667065501213074,-6.0,15.0,-24.939790725708008,0,0,0,20000
1435859,0.6489427089691162,0.29138317704200745,19.0,8.0,-24.98546600341797,0,0,0,20000
1435869,0.6666589975357056,0.28851842880249023,25.0,-13.0,-24.985767364501953,0,0,0,20000
1435879,0.671116292476654,0.27849072217941284,22.0,-21.0,-24.94254493713379,0,0,0,20000
1435889,0.6830687522888184,0.2631053030490875,-21.0,-29.0,-24.866453170776367,0,0,0,20000
1435899,0.6892235279083252,0.24659614264965057,55.0,-38.0,-24.782615661621094,0,0,0,20000
1435909,0.6890147924423218,0.21337680518627167,-22.0,-49.0,-24.59693717956543,0,0,0,20000
1435919,0.6885620355606079,0.19369132816791534,-11.0,-53.0,-24.490936279296875,0,0,0,20000
1435929,0.6699926853179932,0.14840178191661835,-35.0,-62.0,-24.229219436645508,0,0,0,20000
1435939,0.661700427532196,0.11994794011116028,1.0,-71.0,-24.06499481201172,0,0,0,20000
1435949,0.6714907288551331,0.0856795608997345,9.0,-62.0,-23.865312576293945,0,0,0,20000
1435959,0.6694650053977966,0.04147673025727272,-26.0,-64.0,-23.60365104675293,0,0,0,20000
1435969,0.675535261631012,0.01099932286888361,40.0,-63.0,-23.42218017578125,0,0,0,20000
1435979,0.6643956899642944,-0.032043807208538055,-14.0,-58.0,-23.16301918029785,0,0,0,20000
1435989,0.6595687866210938,-0.05661448836326599,-22.0,-46.0,-23.01279067993164,0,0,0,20000
1435999,0.6618043780326843,-0.08522263914346695,0.0,-38.0,-22.836685180664062,0,0,0,20000
1436009,0.6580275893211365,-0.10398325324058533,20.0,-32.0,-22.71830940246582,0,0,0,20000
1436019,0.6680772304534912,-0.12474194914102554,12.0,-28.0,-22.58673095703125,0,0,0,20000
1436029,0.6728900074958801,-0.13202489912509918,8.0,-13.0,-22.535282135009766,0,0,0,20000
1436039,0.6744816303253174,-0.13830246031284332,-18.0,-4.0,-22.489450454711914,0,0,0,20000
1436049,0.6592106819152832,-0.1413380205631256,11.0,-19.0,-22.46282386779785,0,0,0,20000
1436059,0.6563762426376343,-0.1527271270751953,-4.0,-15.0,-22.385560989379883,0,0,0,20000
1436069,0.6475780606269836,-0.16157421469688416,-23.0,-22.0,-22.323028564453125,0,0,0,20000
1436079,0.6656560897827148,-0.1755143404006958,46.0,-12.0,-22.22916030883789,0,0,0,20000
1436089,0.6560722589492798,-0.18790435791015625,-42.0,-31.0,-22.143842697143555,0,0,0,20000
1436099,0.6583237648010254,-0.21337926387786865,6.0,-42.0,-21.978822708129883,0,0,0,20000
1436109,0.6409994959831238,-0.24045494198799133,-43.0,-62.0,-21.8026180267334,0,0,0,20000
1436119,0.6298373341560364,-0.28698813915252686,25.0,-65.0,-21.50733184814453,0,0,0,20000
1436129,0.6338059306144714,-0.3208000361919403,-13.0,-84.0,-21.28603744506836,0,0,0,20000
1436139,0.6375951766967773,-0.377518892288208,27.0,-82.0,-20.92441177368164,0,0,0,20000
1436149,0.6536054015159607,-0.41722574830055237,-2.0,-94.0,-20.6621150970459,0,0,0,20000
1436159,0.6483174562454224,-0.4776034653186798,30.0,-86.0,-20.272584915161133,0,0,0,20000
1436169,0.6657663583755493,-0.5128296613693237,-12.0,-67.0,-20.031309127807617,0,0,0,20000
1436179,0.6522557735443115,-0.557575523853302,29.0,-45.0,-19.73035430908203,0,0,0,20000
1436189,0.666212260723114,-0.5742071270942688,43.0,-16.0,-19.596458435058594,0,0,0,20000
1436199,0.6711339354515076,-0.5773810148239136,-27.0,1.0,-19.542781829833984,0,0,0,20000
1436209,0.6842063665390015,-0.5664873123168945,34.0,40.0,-19.573869705200195,0,0,0,20000
1436219,0.6704326868057251,-0.5427425503730774,-56.0,41.0,-19.68323516845703,0,0,0,20000
1436229,0.6510619521141052,-0.5177975296974182,7.0,64.0,-19.801193237304688,0,0,0,20000
1436239,0.6540846824645996,-0.4668874442577362,-42.0,90.0,-20.0772705078125,0,0,0,20000
1436249,0.632257878780365,-0.42915138602256775,9.0,93.0,-20.277008056640625,0,0,0,20000
1436259,0.6422184109687805,-0.35658150911331177,-7.0,105.0,-20.689239501953125,0,0,0,20000
1436269,0.6173552870750427,-0.30572256445884705,-44.0,104.0,-20.97483253479004,0,0,0,20000
1436279,0.6143568754196167,-0.22896364331245422,0.0,115.0,-21.41977882385254,0,0,0,20000
1436289,0.6010437607765198,-0.18006454408168793,-7.0,103.0,-21.701200485229492,0,0,0,20000
1436299,0.6153700351715088,-0.11177071183919907,56.0,86.0,-22.10270118713379,0,0,0,20000
1436309,0.6366438269615173,-0.06786485761404037,-26.0,89.0,-22.361003875732422,0,0,0,20000
1436319,0.6212853789329529,-0.008024511858820915,6.0,86.0,-22.718103408813477,0,0,0,20000
1436329,0.6174458265304565,0.02105976827442646,-4.0,52.0,-22.893207550048828,0,0,0,20000
1436339,0.6149380803108215,0.06386534869670868,-6.0,59.0,-23.15283203125,0,0,0,20000
1436349,0.6204631924629211,0.08875282853841782,4.0,51.0,-23.30689239501953,0,0,0,20000
1436359,0.6263887286186218,0.126662015914917,23.0,67.0,-23.54096794128418,0,0,0,20000
1436369,0.6185036897659302,0.14498955011367798,-10.0,33.0,-23.65921401977539,0,0,0,20000
1436379,0.6273321509361267,0.15952253341674805,14.0,8.0,-23.755699157714844,0,0,0,20000
1436389,0.6283501982688904,0.15827113389968872,-28.0,-14.0,-23.757762908935547,0,0,0,20000
1436399,0.6210711002349854,0.14656655490398407,11.0,-30.0,-23.696693420410156,0,0,0,20000
1436409,0.6176398396492004,0.12798838317394257,-11.0,-56.0,-23.593374252319336,0,0,0,20000
1436419,0.6171741485595703,0.08499230444431305,-16.0,-74.0,-23.341588973999023,0,0,0,20000
1436429,0.6102591753005981,0.04292471334338188,0.0,-85.0,-23.09278678894043,0,0,0,20000
1436439,0.6154094338417053,-0.021019870415329933,10.0,-102.0,-22.70948600769043,0,0,0,20000
1436449,0.6281325817108154,-0.06974833458662033,43.0,-116.0,-22.41411590576172,0,0,0,20000
1436459,0.6585788726806641,-0.1440436989068985,24.0,-112.0,-21.96146583557129,0,0,0,20000
1436469,0.6544048190116882,-0.19606512784957886,17.0,-115.0,-21.638832092285156,0,0,0,20000
1436479,0.6668901443481445,-0.2764110565185547,-30.0,-118.0,-21.142099380493164,0,0,0,20000
1436489,0.6434716582298279,-0.3312683403491974,-20.0,-122.0,-20.794410705566406,0,0,0,20000
1436499,0.6584554314613342,-0.40703123807907104,38.0,-93.0,-20.31707000732422,0,0,0,20000
1436509,0.659216046333313,-0.44953688979148865,-5.0,-75.0,-20.036035537719727,0,0,0,20000
1436519,0.6570982336997986,-0.49405553936958313,0.0,-62.0,-19.740304946899414,0,0,0,20000
1436529,0.6519352197647095,-0.5160858631134033,-38.0,-36.0,-19.57769012451172,0,0,0,20000
1436539,0.6338770985603333,-0.536094069480896,2.0,-19.0,-19.42588996887207,0,0,0,20000
1436549,0.6317331194877625,-0.5418839454650879,-11.0,0.0,-19.35873794555664,0,0,0,20000
1436559,0.6333296298980713,-0.5306517481803894,8.0,37.0,-19.393842697143555,0,0,0,20000
1436569,0.6410658955574036,-0.5085846185684204,2.0,75.0,-19.495166778564453,0,0,0,20000
1436579,0.6304652094841003,-0.4555303752422333,-9.0,79.0,-19.7849178314209,0,0,0,20000
1436589,0.6239972710609436,-0.41168200969696045,-26.0,103.0,-20.0222225189209,0,0,0,20000
1436599,0.6196295022964478,-0.33707574009895325,12.0,120.0,-20.447772979736328,0,0,0,20000
1436609,0.6229690313339233,-0.27922847867012024,23.0,128.0,-20.77668571472168,0,0,0,20000
1436619,0.6368440389633179,-0.18667453527450562,21.0,127.0,-21.318578720092773,0,0,0,20000
1436629,0.6433858275413513,-0.1297352910041809,-40.0,104.0,-21.651100158691406,0,0,0,20000
1436639,0.6253324151039124,-0.0654388815164566,-21.0,93.0,-22.031450271606445,0,0,0,20000
1436649,0.5991724729537964,-0.029820112511515617,-47.0,63.0,-22.242542266845703,0,0,0,20000
1436659,0.5865188241004944,0.014191044494509697,9.0,57.0,-22.506420135498047,0,0,0,20000
1436669,0.5963643193244934,0.03869898244738579,-23.0,38.0,-22.655242919921875,0,0,0,20000
1436679,0.5888428688049316,0.05875948816537857,15.0,21.0,-22.778715133666992,0,0,0,20000
1436689,0.5874152779579163,0.06154785305261612,7.0,0.0,-22.799081802368164,0,0,0,20000
1436699,0.595023512840271,0.05511942878365517,11.0,-18.0,-22.764047622680664,0,0,0,20000
1436709,0.5989549160003662,0.03921714425086975,20.0,-41.0,-22.671417236328125,0,0,0,20000
1436719,0.6258155703544617,-0.002891459036618471,48.0,-78.0,-22.419784545898438,0,0,0,20000
1436729,0.6277365684509277,-0.04293501377105713,-23.0,-104.0,-22.177940368652344,0,0,0,20000
1436739,0.643600344657898,-0.11221107095479965,56.0,-96.0,-21.757129669189453,0,0,0,20000
1436749,0.6682455539703369,-0.15628910064697266,22.0,-96.0,-21.48434829711914,0,0,0,20000
1436759,0.6591708660125732,-0.2355630248785019,-7.0,-130.0,-20.99664878845215,0,0,0,20000
1436769,0.6638376712799072,-0.2991568148136139,-15.0,-144.0,-20.598703384399414,0,0,0,20000
1436779,0.6399499773979187,-0.40430328249931335,-25.0,-153.0,-19.946163177490234,0,0,0,20000
1436789,0.635936975479126,-0.4768974184989929,2.0,-156.0,-19.48371124267578,0,0,0,20000
1436799,0.6398814916610718,-0.5803709030151367,0.0,-146.0,-18.830495834350586,0,0,0,20000
1436809,0.6531413197517395,-0.6400379538536072,32.0,-115.0,-18.43552589416504,0,0,0,20000
1436819,0.6501675844192505,-0.7072904109954834,-8.0,-91.0,-17.991090774536133,0,0,0,20000
1436829,0.6481778025627136,-0.7362778782844543,-5.0,-49.0,-17.77358627319336,0,30,0,20000
1436839,0.6506503820419312,-0.7618862390518188,10.0,-25.0,-199.37472534179688,0,30,0,20000
1436849,0.6644008755683899,-0.7687654495239258,21.0,-7.0,-201.08750915527344,0,30,0,20000
1436859,0.678385853767395,-0.7883554100990295,32.0,-44.0,-202.72329711914062,0,30,0,20000
1436869,0.6879171133041382,-0.8427542448043823,-28.0,-165.0,-204.1477813720703,0,30,0,20000
1436879,0.6465674042701721,-1.004441261291504,-87.0,-292.0,-204.92189025878906,0,30,0,20000
1436889,0.627098560333252,-1.1817519664764404,11.0,-458.0,-205.59156799316406,0,30,0,20000
1436899,0.6195459365844727,-1.5720642805099487,-29.0,-630.0,-204.96548461914062,0,30,0,20000
1436909,0.6036814451217651,-1.9255099296569824,-17.0,-853.0,-204.53799438476562,0,30,0,20000
1436919,0.6201396584510803,-2.6097989082336426,38.0,-1098.0,-202.09317016601562,0,30,0,20000
1436929,0.6351244449615479,-3.1762194633483887,-63.0,-1360.0,-200.3179168701172,0,30,0,20000
1436939,0.6244684457778931,-4.21619987487793,114.0,-1624.0,-195.65127563476562,0,30,0,20000
1436949,0.7112151980400085,-5.022427082061768,107.0,-1882.0,-192.33224487304688,0,30,0,20000
1436959,0.6979849934577942,-6.450045108795166,9.0,-2190.0,-185.21510314941406,0,30,0,20000
1436969,0.7675735354423523,-7.542360782623291,183.0,-2500.0,-180.03529357910156,0,30,0,20000
1436979,0.7981772422790527,-9.378424644470215,-38.0,-2790.0,-170.301513671875,0,30,0,20000
1436989,0.8008453249931335,-10.734904289245605,96.0,-3047.0,-163.35134887695312,0,30,0,20000
1436999,0.9009496569633484,-12.887137413024902,114.0,-3211.0,-151.51715087890625,0,30,0,20000
1437009,0.9244177341461182,-14.381237983703613,68.0,-3319.0,-143.52561950683594,0,30,0,20000
1437019,1.0210696458816528,-16.65178680419922,208.0,-3313.0,-130.75765991210938,0,30,0,20000
1437029,1.070853352546692,-18.1484375,91.0,-3247.0,-122.52471160888672,0,30,0,20000
1437039,1.0411741733551025,-20.331220626831055,60.0,-3144.0,-110.0601806640625,0,30,0,20000
1437049,1.0826603174209595,-21.724212646484375,47.0,-2958.0,-102.23202514648438,0,30,0,20000
1437059,1.0886467695236206,-23.670515060424805,56.0,-2752.0,-90.97984313964844,0,30,0,20000
1437069,1.126166820526123,-24.85279083251953,-6.0,-2472.0,-84.22309875488281,0,30,0,20000
1437079,1.1064380407333374,-26.443878173828125,13.0,-2201.0,-74.92677307128906,0,30,0,20000
1437089,1.0925993919372559,-27.343841552734375,-95.0,-1852.0,-69.70762634277344,0,30,0,20000
1437099,1.0289758443832397,-28.49088478088379,-114.0,-1555.0,-62.94190979003906,0,30,0,20000
1437109,0.9815249443054199,-29.09671401977539,-20.0,-1198.0,-59.37532043457031,0,30,0,20000
1437119,0.9700399041175842,-29.795042037963867,15.0,-906.0,-55.21305465698242,0,30,0,20000
1437129,0.9842154383659363,-30.123435974121094,-48.0,-581.0,-53.24285125732422,0,30,0,20000
1437139,0.9291043281555176,-30.43100357055664,-9.0,-359.0,-51.377967834472656,0,30,0,20000
1437149,0.9206863045692444,-30.522722244262695,-35.0,-106.0,-50.79831314086914,0,30,0,20000
1437159,0.8355149626731873,-30.56028175354004,-186.0,4.0,-50.539649963378906,0,30,0,20000
1437169,0.7946915626525879,-30.513107299804688,43.0,143.0,-50.790672302246094,0,30,0,20000
1437179,0.7978398203849792,-30.387479782104492,-35.0,193.0,-51.51799392700195,0,30,0,20000
1437189,0.7381803393363953,-30.304359436035156,-135.0,174.0,-51.99645233154297,0,30,0,20000
1437199,0.7114877104759216,-30.196338653564453,49.0,145.0,-52.630340576171875,0,30,0,20000
1437209,0.7138851284980774,-30.156635284423828,-23.0,48.0,-52.85832214355469,0,30,0,20000
1437219,0.6738861203193665,-30.173864364624023,-48.0,-82.0,-52.74554443359375,0,30,0,20000
1437229,0.6974090933799744,-30.24608612060547,103.0,-205.0,-52.29933166503906,0,30,0,20000
1437239,0.7454245090484619,-30.436992645263672,21.0,-341.0,-51.132904052734375,0,30,0,20000
1437249,0.740873396396637,-30.61979866027832,-41.0,-464.0,-50.00337600708008,0,30,0,20000
1437259,0.7613312602043152,-30.98457145690918,65.0,-570.0,-47.764869689941406,0,30,0,20000
1437269,0.7968356609344482,-31.28059196472168,58.0,-685.0,-45.91916275024414,0,30,0,20000
1437279,0.8362738490104675,-31.79071044921875,41.0,-772.0,-42.763607025146484,0,30,0,20000
1437289,0.8566328883171082,-32.1638069152832,45.0,-849.0,-40.40425109863281,0,30,0,20000
1437299,0.8749571442604065,-32.763153076171875,2.0,-887.0,-36.65690231323242,0,30,0,20000
1437309,0.8860886096954346,-33.17372512817383,8.0,-902.0,-34.012855529785156,0,30,0,20000
1437319,0.8878727555274963,-33.77610397338867,-19.0,-875.0,-30.1864013671875,0,30,0,20000
1437329,0.8923776745796204,-34.16749572753906,41.0,-826.0,-27.59734344482422,0,30,0,20000
1437339,0.9471900463104248,-34.706260681152344,95.0,-767.0,-24.095069885253906,0,30,0,20000
1437349,0.9971553087234497,-35.02788162231445,117.0,-667.0,-21.87134552001953,0,30,0,20000
1437359,1.0112890005111694,-35.45327377319336,-28.0,-581.0,-19.00157928466797,0,30,0,20000
1437369,1.0064181089401245,-35.681419372558594,-3.0,-451.0,-17.297164916992188,0,30,0,20000
1437379,1.0550388097763062,-35.94169616699219,86.0,-334.0,-15.384693145751953,0,30,0,20000
1437389,1.0467280149459839,-36.05974197387695,-130.0,-218.0,-14.315498352050781,0,30,0,20000
1437399,0.9866868257522583,-36.16608810424805,-45.0,-110.0,-13.309444427490234,0,30,0,20000
1437409,1.0216312408447266,-36.18408203125,147.0,-12.0,-12.830650329589844,0,30,0,20000
1437419,1.0390411615371704,-36.154361724853516,-64.0,83.0,-12.638591766357422,0,30,0,20000
1437429,0.9806522130966187,-36.11323165893555,-83.0,102.0,-12.517509460449219,0,30,0,20000
1437439,0.97920161485672,-36.022762298583984,71.0,138.0,-12.69671630859375,0,30,0,20000
1437449,1.0012515783309937,-35.95124053955078,-2.0,182.0,-12.766998291015625,0,30,0,20000
1437459,0.9311182498931885,-35.83213424682617,-156.0,178.0,-13.128902435302734,0,30,0,20000
1437469,0.9002264738082886,-35.75041198730469,19.0,185.0,-13.272315979003906,0,30,0,20000
1437479,0.9410082697868347,-35.620487213134766,69.0,193.0,-13.711471557617188,0,30,0,20000
1437489,0.9253051280975342,-35.53752136230469,-91.0,172.0,-13.87506103515625,0,30,0,20000
1437499,0.8785741925239563,-35.43584442138672,-14.0,147.0,-14.156593322753906,0,30,0,20000
1437509,0.9079362750053406,-35.38025665283203,98.0,97.0,-14.16598892211914,0,30,0,20000
1437519,0.9465874433517456,-35.33024597167969,-14.0,56.0,-14.145259857177734,0,30,0,20000
1437529,0.9248083233833313,-35.32593536376953,-31.0,-2.0,-13.851524353027344,0,30,0,20000
1437539,0.9440645575523376,-35.35122299194336,69.0,-59.0,-13.379547119140625,0,30,0,20000
1437549,0.9709473252296448,-35.38084411621094,12.0,-71.0,-12.879768371582031,0,30,0,20000
1437559,0.9405033588409424,-35.453575134277344,-72.0,-122.0,-12.118133544921875,0,30,0,20000
1437569,0.9176695942878723,-35.51039505004883,-11.0,-126.0,-11.447944641113281,0,30,0,20000
1437579,0.9672619104385376,-35.597808837890625,95.0,-116.0,-10.589569091796875,0,30,0,20000
1437589,0.9998686909675598,-35.64883804321289,44.0,-101.0,-10.01340103149414,0,30,0,20000
1437599,0.9872161149978638,-35.712928771972656,-46.0,-85.0,-9.219741821289062,0,30,0,20000
1437609,0.9834933280944824,-35.74897384643555,-5.0,-76.0,-8.728355407714844,0,30,0,20000
1437619,0.9923182129859924,-35.773563385009766,30.0,-18.0,-8.234996795654297,0,30,0,20000
1437629,1.011176586151123,-35.782222747802734,18.0,8.0,-7.836250305175781,0,30,0,20000
1437639,1.01462984085083,-35.76683044433594,11.0,50.0,-7.582157135009766,0,30,0,20000
1437649,1.0359339714050293,-35.72636032104492,24.0,88.0,-7.480262756347656,0,30,0,20000
1437659,1.0455374717712402,-35.680908203125,6.0,105.0,-7.410972595214844,0,30,0,20000
1437669,1.0262700319290161,-35.600460052490234,-50.0,134.0,-7.555561065673828,0,30,0,20000
1437679,1.0046590566635132,-35.53660583496094,-13.0,157.0,-7.604930877685547,0,30,0,20000
1437689,1.0049504041671753,-35.42689895629883,44.0,162.0,-7.934898376464844,0,30,0,20000
1437699,1.022807240486145,-35.35466766357422,-2.0,175.0,-8.045333862304688,0,30,0,20000
1437709,1.0034691095352173,-35.244815826416016,-40.0,157.0,-8.387184143066406,0,30,0,20000
1437719,0.9809969067573547,-35.172054290771484,-35.0,149.0,-8.511711120605469,0,30,0,20000
1437729,0.9743635058403015,-35.06996154785156,3.0,153.0,-8.817588806152344,0,30,0,20000
1437739,0.9690675139427185,-35.004127502441406,-9.0,133.0,-8.910751342773438,0,30,0,20000
1437749,0.9497685432434082,-34.9190788269043,-25.0,122.0,-9.123886108398438,0,30,0,20000
1437759,0.9560390710830688,-34.86252212524414,35.0,127.0,-9.170120239257812,0,30,0,20000
1437769,0.9825081825256348,-34.78086853027344,25.0,112.0,-9.371299743652344,0,30,0,20000
1437779,0.9836509823799133,-34.734920501708984,-44.0,99.0,-9.361862182617188,0,30,0,20000
1437789,0.9763669967651367,-34.674537658691406,16.0,87.0,-9.442337036132812,0,30,0,20000
1437799,0.9859479665756226,-34.638851165771484,44.0,80.0,-9.377227783203125,0,30,0,20000
1437809,1.0059081315994263,-34.57329177856445,14.0,102.0,-9.494461059570312,0,30,0,20000
1437819,1.0101051330566406,-34.530391693115234,25.0,80.0,-9.479034423828125,0,30,0,20000
1437829,1.001179575920105,-34.4822998046875,-26.0,60.0,-9.497581481933594,0,30,0,20000
1437839,0.9891000986099243,-34.46467590332031,-62.0,42.0,-9.3350830078125,0,30,0,20000
1437849,0.9685047268867493,-34.4503288269043,0.0,8.0,-9.153999328613281,0,30,0,20000
1437859,0.9727991223335266,-34.449867248535156,21.0,-22.0,-8.889801025390625,0,30,0,20000
1437869,0.9812363386154175,-34.464115142822266,-13.0,-18.0,-8.536758422851562,0,30,0,20000
1437879,0.9632612466812134,-34.48169708251953,-47.0,-62.0,-8.162765502929688,0,30,0,20000
1437889,0.9448342323303223,-34.51589584350586,-17.0,-39.0,-7.687309265136719,0,30,0,20000
1437899,0.9672532677650452,-34.53273010253906,74.0,-10.0,-7.314704895019531,0,30,0,20000
1437909,0.9867570996284485,-34.540992736816406,8.0,-16.0,-6.992900848388672,0,30,0,20000
1437919,0.9852170944213867,-34.540855407714844,2.0,14.0,-6.721275329589844,0,30,0,20000
1437929,0.9969933032989502,-34.52736282348633,20.0,27.0,-6.530265808105469,0,30,0,20000
1437939,0.9926700592041016,-34.50804138183594,-27.0,44.0,-6.3752288818359375,0,30,0,20000
1437949,0.9701640009880066,-34.47306442260742,-21.0,75.0,-6.31573486328125,0,30,0,20000
1437959,0.9666301012039185,-34.43825912475586,6.0,77.0,-6.257366180419922,0,30,0,20000
1437969,0.962925374507904,-34.37872314453125,-10.0,83.0,-6.350349426269531,0,30,0,20000
1437979,0.9631835222244263,-34.33258819580078,-10.0,119.0,-6.366058349609375,0,30,0,20000
1437989,0.9470480680465698,-34.24953842163086,-33.0,124.0,-6.607414245605469,0,30,0,20000
1437999,0.935065746307373,-34.18720626831055,-15.0,154.0,-6.728708267211914,0,30,0,20000
1438009,0.9463129043579102,-34.08527374267578,35.0,165.0,-7.092720031738281,0,30,0,20000
1438019,0.9503750205039978,-34.0105094909668,11.0,149.0,-7.298921585083008,0,30,0,20000
1438029,0.9543559551239014,-33.89942932128906,-10.0,162.0,-7.728691101074219,0,30,0,20000
1438039,0.9547180533409119,-33.82709884643555,6.0,148.0,-7.931299209594727,0,30,0,20000
1438049,0.9418076872825623,-33.74125671386719,-33.0,114.0,-8.22000503540039,0,30,0,20000
1438059,0.9300320744514465,-33.69404220581055,-14.0,111.0,-8.280532836914062,0,30,0,20000
1438069,0.938607931137085,-33.62745666503906,29.0,82.0,-8.460895538330078,0,30,0,20000
1438079,0.9385325312614441,-33.58735656738281,-19.0,76.0,-8.485342025756836,0,30,0,20000
1438089,0.9237357974052429,-33.54143142700195,-16.0,59.0,-8.547386169433594,0,30,0,20000
1438099,0.925281822681427,-33.521541595458984,13.0,23.0,-8.454975128173828,0,30,0,20000
1438109,0.9261736273765564,-33.51348876953125,-14.0,2.0,-8.292362213134766,0,30,0,20000
1438119,0.9224085807800293,-33.51860046386719,24.0,-11.0,-8.050666809082031,0,30,0,20000
1438129,0.9393711686134338,-33.5381965637207,22.0,-42.0,-7.721368789672852,0,30,0,20000
1438139,0.9331852793693542,-33.56173324584961,-30.0,-42.0,-7.367059707641602,0,30,0,20000
1438149,0.9153897166252136,-33.594120025634766,-9.0,-48.0,-6.957897186279297,0,30,0,20000
1438159,0.9243397116661072,-33.61687088012695,14.0,-39.0,-6.604963302612305,0,30,0,20000
1438169,0.9252895712852478,-33.628639221191406,-13.0,7.0,-6.316755294799805,0,30,0,20000
1438179,0.916772186756134,-33.62767028808594,23.0,15.0,-6.104816436767578,0,30,0,20000
1438189,0.9431952834129333,-33.601234436035156,32.0,57.0,-6.046504974365234,0,30,0,20000
1438199,0.952946662902832,-33.5684814453125,2.0,96.0,-6.0280609130859375,0,30,0,20000
1438209,0.9332422614097595,-33.497161865234375,-43.0,105.0,-6.244405746459961,0,30,0,20000
1438219,0.933960497379303,-33.439613342285156,26.0,149.0,-6.3819122314453125,0,30,0,20000
1438229,0.9618386030197144,-33.33536911010742,33.0,151.0,-6.804788589477539,0,30,0,20000
1438239,0.9480774998664856,-33.2686767578125,-68.0,154.0,-7.007280349731445,0,30,0,20000
1438249,0.90765780210495,-33.16958999633789,-24.0,136.0,-7.409294128417969,0,30,0,20000
1438259,0.8937290906906128,-33.10817337036133,2.0,108.0,-7.589853286743164,0,30,0,20000
1438269,0.8751562833786011,-33.033390045166016,-40.0,114.0,-7.854728698730469,0,30,0,20000
1438279,0.8585154414176941,-32.9962272644043,-2.0,71.0,-7.897041320800781,0,30,0,20000
1438289,0.8483724594116211,-32.9456901550293,-16.0,85.0,-8.022224426269531,0,30,0,20000
1438299,0.8401184678077698,-32.914161682128906,-12.0,66.0,-8.035823822021484,0,30,0,20000
1438309,0.8510451316833496,-32.88108444213867,41.0,26.0,-8.060800552368164,0,30,0,20000
1438319,0.8787209391593933,-32.864784240722656,44.0,34.0,-7.986379623413086,0,30,0,20000
1438329,0.8910011053085327,-32.85219955444336,-4.0,21.0,-7.890514373779297,0,30,0,20000
1438339,0.8994911909103394,-32.83981704711914,30.0,26.0,-7.794061660766602,0,30,0,20000
1438349,0.9311927556991577,-32.81056213378906,46.0,48.0,-7.800115585327148,0,30,0,20000
1438359,0.9319666624069214,-32.79024887084961,-22.0,41.0,-7.75407600402832,0,30,0,20000
1438369,0.908290684223175,-32.758201599121094,-42.0,52.0,-7.780055999755859,0,30,0,20000
1438379,0.9002124071121216,-32.741790771484375,25.0,50.0,-7.71368408203125,0,30,0,20000
1438389,0.9057453870773315,-32.713409423828125,19.0,46.0,-7.720531463623047,0,30,0,20000
1438399,0.8996372818946838,-32.68877410888672,-47.0,56.0,-7.7064361572265625,0,30,0,20000
1438409,0.8787797689437866,-32.64996337890625,-16.0,60.0,-7.779315948486328,0,30,0,20000
1438419,0.8771052360534668,-32.62171173095703,7.0,54.0,-7.790840148925781,0,30,0,20000
